City_ID,City,Lat,Lng,Max Temp,Humidity,Cloudiness,Wind Speed,Country,Date
0,edinburgh of the seven seas,-37.0676,-12.3116,51.15,53,67,22.73,SH,1690425679
1,suva,-18.1416,178.4415,67.48,94,100,6.91,FJ,1690425730
2,port macquarie,-31.4333,152.9167,69.89,53,0,8.84,AU,1690425730
3,mainvilliers,48.45,1.4561,63.88,87,95,7.0,FR,1690425730
4,ilulissat,69.2167,-51.1,46.42,66,0,4.61,GL,1690425730
5,port-aux-francais,-49.35,70.2167,40.14,75,93,34.87,TF,1690425677
6,udachny,66.4167,112.4,70.45,56,100,9.26,RU,1690425730
7,isafjordur,66.0755,-23.124,44.33,88,98,11.83,IS,1690425688
8,oban,56.4127,-5.4706,55.38,94,100,5.14,GB,1690425730
9,adamstown,-25.066,-130.1015,67.5,61,32,13.49,PN,1690425731
10,papatowai,-46.5619,169.4708,43.59,79,100,21.61,NZ,1690425712
11,longyearbyen,78.2186,15.6401,49.84,76,75,4.61,SJ,1690425731
12,port mathurin,-19.6833,63.4167,74.68,78,38,17.4,MU,1690425731
13,whitehorse,60.7161,-135.0538,69.31,62,100,15.01,CA,1690425731
14,stanley,54.868,-1.6985,56.28,94,75,3.44,GB,1690425731
15,grytviken,-54.2811,-36.5092,33.46,99,100,11.72,GS,1690425731
16,st. john's,47.5649,-52.7093,66.27,83,100,20.71,CA,1690425731
17,lautoka,-17.6167,177.4667,71.46,88,100,5.75,FJ,1690425731
18,xilin hot,43.9667,116.0333,81.61,45,1,6.64,CN,1690425732
19,olonkinbyen,70.9221,-8.7187,40.35,89,100,10.31,SJ,1690425732
20,portland,45.5234,-122.6762,81.45,38,75,10.36,US,1690425164
21,altamira,-3.2033,-52.2064,73.49,100,0,0.0,BR,1690425732
22,hammerfest,70.6634,23.6821,52.25,87,100,6.91,NO,1690425732
23,tiksi,71.6872,128.8694,45.86,72,37,6.71,RU,1690425732
24,invercargill,-46.4,168.35,45.28,75,100,15.55,NZ,1690425732
25,sechura,-5.5569,-80.8222,71.71,76,2,14.79,PE,1690425732
26,menongue,-14.6585,17.691,52.84,50,2,5.82,AO,1690425732
27,yellowknife,62.456,-114.3525,75.72,33,20,13.8,CA,1690425685
28,port lincoln,-34.7333,135.8667,64.98,58,100,20.47,AU,1690425531
29,callao,-12.0667,-77.15,67.71,82,100,9.22,PE,1690425733
30,siem reap,13.5,104.0,83.95,64,89,11.27,KH,1690425733
31,georgetown,5.4112,100.3354,85.95,83,40,3.44,MY,1690425733
32,zuru,11.4241,5.2288,76.78,80,89,4.56,NG,1690425733
33,kralendijk,12.15,-68.2667,82.38,89,20,14.97,BQ,1690425733
34,nuuk,64.1835,-51.7216,41.61,100,100,14.97,GL,1690425733
35,wailua homesteads,22.0669,-159.378,84.63,78,75,16.11,US,1690425733
36,naracoorte,-36.9579,140.7383,62.06,55,28,15.28,AU,1690425733
37,iqaluit,63.7506,-68.5145,44.33,87,40,3.44,CA,1690425682
38,zheleznodorozhnyy,55.7503,38.0042,63.12,86,87,2.21,RU,1690425733
39,avarua,-21.2078,-159.775,75.25,69,75,4.61,CK,1690425734
40,forster,-32.1667,152.5167,65.37,66,0,6.4,AU,1690425734
41,akureyri,65.6835,-18.0878,48.13,76,100,4.61,IS,1690425734
42,albany,42.6001,-73.9662,75.85,82,100,4.81,US,1690425602
43,hovd,48.0056,91.6419,75.94,27,99,4.5,MN,1690425734
44,kidal,18.4411,1.4078,89.91,37,89,7.11,ML,1690425734
45,tura,25.5198,90.2201,77.83,94,99,5.95,IN,1690425734
46,takoradi,4.8845,-1.7554,75.24,93,87,5.35,GH,1690425734
47,margaret river,-33.95,115.0667,57.33,63,98,13.65,AU,1690425734
48,prince rupert,54.3161,-130.3201,62.69,82,20,11.5,CA,1690425611
49,holualoa,19.6228,-155.9522,80.55,81,40,12.66,US,1690425734
50,puerto natales,-51.7236,-72.4875,29.01,92,100,2.1,CL,1690425734
51,ambodifotatra,-16.9833,49.85,72.5,73,86,24.72,MG,1690425735
52,margate,51.3813,1.3862,61.9,94,100,8.01,GB,1690425441
53,la sarre,48.8002,-79.1996,61.38,99,98,4.99,CA,1690425735
54,kegen,43.0197,79.2203,79.02,24,55,0.98,KZ,1690425735
55,turpan,42.9333,89.1667,107.11,8,0,6.06,CN,1690425735
56,blackmans bay,-43.0167,147.3167,55.72,70,100,4.74,AU,1690425735
57,san sperate,39.3583,9.0022,69.64,77,0,6.91,IT,1690425735
58,dek'emhare,15.07,39.0475,62.64,85,85,6.78,ER,1690425735
59,thompson,55.7435,-97.8558,57.36,82,100,2.3,CA,1690425691
60,sokhumi,43.0033,41.0153,73.65,56,0,5.37,GE,1690425735
61,west island,-12.1568,96.8225,76.98,83,75,23.02,CC,1690425736
62,nemuro,43.3236,145.575,68.13,90,100,8.77,JP,1690425736
63,anadyr,64.75,177.4833,55.9,82,75,11.18,RU,1690425736
64,waitangi,-43.9535,-176.5597,47.82,87,88,4.0,NZ,1690425736
65,arraial do cabo,-22.9661,-42.0278,69.87,89,48,20.69,BR,1690425736
66,vorgashor,67.5833,63.95,57.02,86,100,2.55,RU,1690425736
67,hawaiian paradise park,19.5933,-154.9731,81.91,86,75,9.22,US,1690425736
68,hermanus,-34.4187,19.2345,53.1,84,0,6.76,ZA,1690425736
69,tsiombe,-25.3,45.4833,64.45,58,0,12.53,MG,1690425737
70,lat yao,15.751,99.7893,91.78,54,85,5.41,TH,1690425737
71,phan rang-thap cham,11.5667,108.9833,89.6,59,100,11.18,VN,1690425493
72,ushuaia,-54.8,-68.3,31.66,69,0,5.75,AR,1690425737
73,saipan,15.1355,145.701,83.1,100,40,12.66,MP,1690425737
74,keflavik,64.0049,-22.5624,49.91,93,20,11.5,IS,1690425737
75,pudozh,61.8099,36.5345,56.93,93,97,2.26,RU,1690425737
76,fortuna,40.5982,-124.1573,61.36,80,0,12.66,US,1690425704
77,champerico,14.3,-91.9167,83.73,72,16,4.41,GT,1690425738
78,kodiak,57.79,-152.4072,58.51,82,100,6.91,US,1690425638
79,punta arenas,-53.15,-70.9167,30.51,79,22,8.14,CL,1690425439
80,fort abbas,29.1925,72.8536,83.84,81,100,3.62,PK,1690425738
81,sitka,57.0531,-135.33,60.69,82,100,3.44,US,1690425738
82,corfu,39.62,19.9197,76.82,65,20,8.05,GR,1690425678
83,port elizabeth,-33.918,25.5701,57.49,77,0,10.36,ZA,1690425738
84,princeville,45.7668,-61.2985,72.25,83,0,10.36,CA,1690425738
85,carnarvon,-24.8667,113.6333,64.04,51,20,17.76,AU,1690425738
86,griffith,41.5284,-87.4237,84.25,84,40,8.05,US,1690425738
87,tillaberi,14.2117,1.4531,89.26,48,98,15.35,NE,1690425739
88,kapit,2.0167,112.9333,91.67,52,38,1.88,MY,1690425739
89,ribeira grande,38.5167,-28.7,73.78,96,51,5.01,PT,1690425714
90,palmer,42.1584,-72.3287,75.61,72,40,10.36,US,1690425599
91,lompoc,34.6391,-120.4579,73.54,89,100,10.36,US,1690425739
92,saint-pierre,-21.3393,55.4781,65.88,82,75,5.75,RE,1690425740
93,rundu,-17.9333,19.7667,54.61,51,0,4.0,NA,1690425740
94,meulaboh,4.1363,96.1285,82.35,75,91,2.13,ID,1690425740
95,ndele,8.4109,20.6473,69.33,98,100,2.19,CF,1690425740
96,college,64.8569,-147.8028,85.59,54,75,3.0,US,1690425740
97,tolanaro,-25.0319,46.9987,62.67,82,75,8.05,MG,1690425740
98,carroll,39.5501,-77.0164,79.92,83,14,4.0,US,1690425740
99,zaozersk,69.4005,32.4476,51.37,93,100,1.45,RU,1690425741
100,happy valley-goose bay,53.3168,-60.3315,68.31,60,75,0.0,CA,1690425741
101,bethel,41.3712,-73.414,77.31,78,0,8.05,US,1690425741
102,point pedro,9.8167,80.2333,83.08,76,79,17.96,LK,1690425741
103,puerto ayora,-0.7393,-90.3518,76.55,93,78,7.0,EC,1690425741
104,kushima,31.4583,131.2333,88.14,67,31,8.41,JP,1690425561
105,tarko-sale,64.9225,77.785,75.58,54,96,8.41,RU,1690425741
106,mana,5.6592,-53.7767,78.24,85,100,7.38,GF,1690425741
107,mount pearl,47.5166,-52.7813,65.44,83,100,20.71,CA,1690425684
108,palangkaraya,-2.2,113.8333,87.17,53,87,4.0,ID,1690425742
109,acarau,-2.8856,-40.12,77.88,84,11,15.46,BR,1690425742
110,tabuan,9.5156,122.8506,83.62,75,98,14.27,PH,1690425742
111,moose jaw,50.4001,-105.5344,68.47,34,0,7.96,CA,1690425742
112,enriquillo,17.9,-71.2333,79.72,83,100,13.67,DO,1690425742
113,haiku-pauwela,20.9219,-156.3051,83.17,69,40,25.32,US,1690425713
114,cidreira,-30.1811,-50.2056,58.53,83,53,14.2,BR,1690425742
115,wangqing,43.3218,129.7634,87.93,51,35,4.54,CN,1690425742
116,lihue,21.9789,-159.3672,85.24,72,75,16.11,US,1690425742
117,turkmenbasy,40.0222,52.9552,70.57,88,20,2.3,TM,1690425742
118,qaqortoq,60.7167,-46.0333,44.56,81,92,6.26,GL,1690425704
119,labrador city,52.9463,-66.9114,53.51,94,75,3.44,CA,1690425743
120,utrik,11.2278,169.8474,82.31,80,100,17.58,MH,1690425743
121,kogalym,62.2654,74.4791,68.27,71,10,4.47,RU,1690425743
122,antonio enes,-16.2325,39.9086,66.78,78,0,10.18,MZ,1690425743
123,thinadhoo,0.5333,72.9333,83.66,76,100,14.74,MV,1690425743
124,slavske,48.8473,23.4459,46.81,97,100,3.98,UA,1690425743
125,bredasdorp,-34.5322,20.0403,47.68,91,0,4.52,ZA,1690425743
126,gisborne,-38.6533,178.0042,55.04,64,44,10.47,NZ,1690425743
127,mburucuya,-28.0454,-58.2245,52.32,85,74,6.2,AR,1690425743
128,tlahualilo de zaragoza,26.1167,-103.45,87.21,27,35,19.42,MX,1690425744
129,maintirano,-18.0667,44.0167,69.22,70,62,3.85,MG,1690425744
130,vryburg,-26.9566,24.7284,49.03,72,2,9.17,ZA,1690425744
131,westport,41.1415,-73.3579,78.78,79,0,6.91,US,1690425744
132,concepcion,-36.827,-73.0498,46.2,100,43,0.0,CL,1690425725
133,dakhla,23.6848,-15.958,67.46,91,0,23.6,EH,1690425638
134,mejit,10.2753,170.8646,82.58,80,100,16.82,MH,1690425744
135,laela,-8.5667,32.05,50.27,71,49,2.59,TZ,1690425744
136,port saint john's,-31.6229,29.5448,65.68,67,60,11.63,ZA,1690425744
137,rurrenabaque,-14.4413,-67.5278,74.14,76,72,2.06,BO,1690425745
138,djenne,13.9061,-4.5533,87.3,54,100,9.46,ML,1690425745
139,puerto baquerizo moreno,-0.9,-89.6,75.24,80,90,12.5,EC,1690425745
140,saint-joseph,-21.3667,55.6167,64.78,81,79,9.42,RE,1690425745
141,simpang,-1.2667,104.0833,85.84,64,38,6.85,ID,1690425745
142,ancud,-41.8697,-73.8203,46.36,92,100,6.31,CL,1690425745
143,lamu,-2.2717,40.902,73.62,84,99,11.77,KE,1690425745
144,podgornoye,51.735,39.1496,66.42,94,93,4.47,RU,1690425745
145,yinchuan,38.4681,106.2731,75.74,55,100,11.77,CN,1690425555
146,sittwe,20.15,92.9,83.84,81,98,9.24,MM,1690425746
147,levuka,50.1834,-105.4011,71.42,33,10,7.58,CA,1690425746
148,la mira,18.035,-102.3266,81.05,81,74,4.99,MX,1690425746
149,kapa'a,22.0752,-159.319,85.98,78,75,16.11,US,1690425746
150,libenge,3.65,18.6333,69.6,97,100,2.91,CD,1690425746
151,atafu village,-8.5421,-172.5159,83.37,75,100,17.96,TK,1690425746
152,bayganin,48.6947,55.8742,78.44,42,1,5.68,KZ,1690425746
153,bilibino,68.0546,166.4372,52.43,69,100,3.6,RU,1690425701
154,stupino,54.9008,38.0708,60.21,93,71,1.95,RU,1690425746
155,rasht,37.2808,49.5832,69.62,100,0,0.0,IR,1690425496
156,auki,-8.7676,160.7034,78.66,91,100,4.41,SB,1690425747
157,naolinco de victoria,19.65,-96.85,60.75,95,100,3.06,MX,1690425747
158,wynyard,-41.0,145.7167,54.54,75,100,9.04,AU,1690425747
159,uturoa,-16.7333,-151.4333,78.4,83,50,8.1,PF,1690425747
160,bubaque,11.2833,-15.8333,81.46,81,100,11.95,GW,1690425747
161,yayva,59.3303,57.2641,60.17,74,80,3.4,RU,1690425747
162,lebu,-37.6167,-73.65,47.55,85,90,0.43,CL,1690425747
163,kruisfontein,-34.0033,24.7314,48.88,88,64,7.07,ZA,1690425748
164,arawa,-6.2132,155.5367,86.54,71,93,4.97,PG,1690425748
165,fale old settlement,-9.3852,-171.2468,83.34,73,39,17.07,TK,1690425748
166,belmonte,-15.8631,-38.8828,72.0,74,40,6.15,BR,1690425748
167,talnakh,69.4865,88.3972,79.21,48,65,6.04,RU,1690425748
168,yigo village,13.5361,144.8886,79.92,94,40,11.5,GU,1690425748
169,arkhangel'sk,64.5401,40.5433,59.68,83,100,3.11,RU,1690425749
170,pekanbaru,0.5333,101.45,84.52,74,20,9.22,ID,1690425749
171,nar'yan-mar,67.6713,53.087,66.33,63,84,2.89,RU,1690425749
172,barra de santo antonio,-9.4047,-35.5072,69.08,83,39,3.15,BR,1690425749
173,nantucket,41.2835,-70.0995,75.99,96,7,15.43,US,1690425749
174,hotan,37.0997,79.9269,86.47,26,55,3.67,CN,1690425749
175,ust-tsilma,65.441,52.1498,61.59,81,92,3.06,RU,1690425725
176,esfarayen,37.0765,57.5101,65.86,66,27,7.23,IR,1690425750
177,nabire,-3.3667,135.4833,87.69,61,78,3.56,ID,1690425750
178,malaga,36.7202,-4.4203,77.74,78,20,1.01,ES,1690425750
179,buka,40.8108,69.1986,93.43,13,3,11.25,UZ,1690425750
180,vicuna,-30.0319,-70.7081,47.93,48,100,1.16,CL,1690425750
181,constantia,44.1833,28.65,68.7,88,99,15.41,RO,1690425750
182,kisesa,-3.0833,34.15,59.99,61,44,8.23,TZ,1690425750
183,minas de marcona,-15.2119,-75.1103,54.03,87,48,10.96,PE,1690425750
184,sinabang,2.4803,96.3801,84.13,71,79,3.15,ID,1690425750
185,cholpon-ata,42.6494,77.0823,75.25,55,91,1.39,KG,1690425751
186,nadi,-17.8,177.4167,71.6,88,100,5.75,FJ,1690425751
187,skovorodino,53.9833,123.9167,83.97,42,99,7.56,RU,1690425751
188,mantua,45.1667,10.7833,67.24,77,8,5.01,IT,1690425751
189,oranjemund,-28.55,16.4333,52.25,72,0,5.5,NA,1690425726
190,bereznik,62.8551,42.7072,58.14,99,100,3.49,RU,1690425751
191,salinas,36.6777,-121.6555,67.48,83,100,17.27,US,1690425719
192,pozanti,37.4278,34.8717,73.0,28,0,5.12,TR,1690425751
193,kencong,-8.2833,113.3667,79.23,63,16,5.1,ID,1690425752
194,xichang,27.8964,102.2634,73.08,80,98,2.04,CN,1690425752
195,singaraja,-8.112,115.0882,82.76,56,11,1.05,ID,1690425752
196,n'zeto,-7.2312,12.8666,68.58,90,4,7.49,AO,1690425752
197,kismayo,-0.3582,42.5454,75.45,82,97,14.25,SO,1690425752
198,wanning,18.8003,110.3967,90.45,57,100,0.6,CN,1690425752
199,nova xavantina,-14.6667,-52.35,72.41,42,13,1.86,BR,1690425752
200,iskateley,67.6803,53.1512,66.09,63,87,2.77,RU,1690425752
201,meadow lakes,61.6247,-149.6011,69.91,73,100,5.75,US,1690425753
202,hermansverk,61.1846,6.8502,57.16,94,100,2.51,NO,1690425753
203,maragogi,-9.0122,-35.2225,73.36,86,55,4.12,BR,1690425753
204,bodo,67.28,14.405,58.77,92,0,3.44,NO,1690425753
205,lorengau,-2.0226,147.2712,83.88,80,62,12.66,PG,1690425753
206,fort bragg,35.139,-79.006,84.78,78,0,5.75,US,1690425730
207,brookings,44.3114,-96.7984,87.8,45,0,6.91,US,1690425753
208,yuzhno-kurilsk,44.0306,145.8556,71.96,77,100,4.34,RU,1690425753
209,roxboro,36.3937,-78.9828,81.07,86,54,6.17,US,1690425753
210,corn island,12.1694,-83.0418,82.36,81,99,17.07,NI,1690425754
211,oumache,34.6929,5.6809,88.09,51,0,11.5,DZ,1690425754
212,saint-francois,46.4154,3.9054,60.24,77,75,5.75,FR,1690425754
213,bac lieu,9.285,105.7244,86.52,66,100,19.71,VN,1690425754
214,karratha,-20.7377,116.8463,72.28,49,96,13.85,AU,1690425754
215,angaur state,6.906,134.13,79.43,84,100,23.02,PW,1690425754
216,santa cruz,-17.8,-63.1667,67.46,56,75,16.11,BO,1690425009
217,prado,-17.3411,-39.2208,71.51,71,78,4.25,BR,1690425743
218,moranbah,-22.0016,148.0466,69.78,56,64,20.67,AU,1690425755
219,ha'il,27.5219,41.6907,78.82,21,0,4.61,SA,1690425755
220,usogorsk,63.4106,48.6872,62.15,68,100,7.18,RU,1690425755
221,chonchi,-42.6128,-73.8092,47.12,99,100,2.84,CL,1690425755
222,machali,-34.1833,-70.6667,51.33,56,100,2.86,CL,1690425755
223,hrubieszow,50.805,23.8925,53.38,95,100,17.67,PL,1690425755
224,nova sintra,14.8667,-24.7167,73.29,85,63,17.18,CV,1690425755
225,howrah,22.5892,88.3103,86.0,84,40,8.05,IN,1690425755
226,mugia,43.1041,-9.2179,65.91,80,97,5.1,ES,1690425756
227,rethymno,35.3647,24.4714,89.22,39,0,2.66,GR,1690425725
228,vila franca do campo,37.7167,-25.4333,68.41,86,2,4.72,PT,1690425643
229,palikir - national government center,6.9248,158.1611,86.85,70,75,9.22,FM,1690425756
230,mao,39.8885,4.2658,70.36,94,0,2.3,ES,1690425756
231,copala,16.65,-98.9833,80.19,85,32,2.66,MX,1690425749
232,thunder bay,48.4001,-89.3168,67.98,94,0,2.3,CA,1690425756
233,qobustan,40.0824,49.412,76.93,72,0,3.24,AZ,1690425756
234,new norfolk,-42.7826,147.0587,56.91,51,100,4.27,AU,1690425756
235,arauca,7.0847,-70.7591,82.4,83,75,5.75,CO,1690425756
236,sangin,32.0728,64.8359,90.45,32,5,2.37,AF,1690425756
237,whistler,50.1164,-122.9695,63.79,66,55,3.22,CA,1690425757
238,acoyapa,11.9703,-85.1711,77.76,84,100,7.27,NI,1690425757
239,taoudenni,22.6783,-3.9836,98.22,25,26,8.48,ML,1690425757
240,guazapa,13.8769,-89.1731,74.08,83,44,2.28,SV,1690425757
241,ar rutbah,33.0381,40.2848,82.2,28,0,10.02,IQ,1690425757
242,konarka,19.9,86.1167,82.8,78,51,21.34,IN,1690425757
243,remire-montjoly,4.9167,-52.2667,77.04,94,100,0.0,GF,1690425757
244,bayeux,-7.125,-34.9322,75.83,88,40,6.91,BR,1690425757
245,torghay,49.6339,63.4981,75.06,56,1,5.68,KZ,1690425757
246,gadzhiyevo,69.2551,33.3362,50.68,94,100,1.16,RU,1690425758
247,kasongo-lunda,-6.4667,16.8167,68.04,71,1,2.01,CD,1690425758
248,bamboo flat,11.7,92.7167,84.29,84,40,11.5,IN,1690425711
249,hithadhoo,-0.6,73.0833,82.96,78,37,16.06,MV,1690425758
250,leskovac,42.9981,21.9461,60.39,87,93,3.47,RS,1690425758
251,wellawaya,6.7318,81.1018,85.5,54,100,8.08,LK,1690425758
252,siwa oasis,29.2041,25.5195,84.27,32,2,5.26,EG,1690425758
253,opuwo,-18.0607,13.84,58.57,42,1,3.94,NA,1690425758
254,tibanbang,6.6315,126.1055,82.6,74,100,6.44,PH,1690425758
255,andradina,-20.8961,-51.3794,73.29,42,32,5.68,BR,1690425759
256,ust-nera,64.5667,143.2,58.98,54,96,7.61,RU,1690425759
257,codrington,-38.2667,141.9667,59.56,63,2,17.96,AU,1690425759
258,namibe,-15.1961,12.1522,59.29,91,68,7.74,AO,1690425759
259,cabo san lucas,22.8909,-109.9124,89.62,75,20,10.36,MX,1690425501
260,selfoss,63.9331,-20.9971,50.04,74,100,6.8,IS,1690425759
261,vilyuysk,63.7553,121.6247,71.56,32,99,6.58,RU,1690425759
262,nagqu,31.5,92.0,43.88,80,100,1.23,CN,1690425759
263,priob'ye,62.5206,65.5964,64.06,82,92,5.23,RU,1690425759
264,potosi,-19.5836,-65.7531,37.65,72,0,5.66,BO,1690425760
265,afaahiti,-17.75,-149.2833,75.07,83,61,5.66,PF,1690425760
266,plaza huincul,-38.926,-69.2086,44.15,10,97,5.19,AR,1690425623
267,taulaga,-11.0553,-171.0883,82.09,69,40,14.09,AS,1690425760
268,caleta de carquin,-11.0925,-77.6267,67.3,80,52,8.93,PE,1690425760
269,sanctuary point,-35.1114,150.629,68.32,34,0,7.47,AU,1690425760
270,livingston,55.9029,-3.5226,56.48,98,75,6.91,GB,1690425760
271,tazovsky,67.4667,78.7,66.27,71,10,1.59,RU,1690425760
272,hilo,19.7297,-155.09,87.28,83,75,9.22,US,1690425760
273,colonia menno,-22.3667,-59.8167,63.48,82,98,7.52,PY,1690425761
274,loen,7.7601,168.2307,82.45,78,100,8.79,MH,1690425761
275,kapuskasing,49.4169,-82.4331,66.29,94,75,2.3,CA,1690425742
276,sabang,5.8933,95.3214,82.83,76,100,18.66,ID,1690425761
277,klyuchi,52.2667,79.1667,71.47,43,100,3.76,RU,1690425761
278,metlili chaamba,32.2667,3.6333,90.54,16,0,0.0,DZ,1690425761
279,andergrove,-21.0833,149.1833,74.64,65,63,14.79,AU,1690425704
280,arinos,-15.9169,-46.1056,66.83,42,9,0.89,BR,1690425762
281,jaguaquara,-13.5306,-39.9708,59.63,99,67,3.09,BR,1690425762
282,okhotsk,59.3833,143.3,64.67,80,92,3.47,RU,1690425762
283,taro,-8.3862,115.28,73.4,57,41,5.14,ID,1690425762
284,chifeng,42.2683,118.9636,89.56,43,26,12.01,CN,1690425762
285,oshkosh,44.0247,-88.5426,80.98,83,40,0.0,US,1690425484
286,santa rosalia,27.3167,-112.2833,90.07,43,3,1.03,MX,1690425762
287,peace river,56.2501,-117.286,64.71,82,100,6.91,CA,1690425521
288,walvis bay,-22.9575,14.5053,51.1,93,0,11.5,NA,1690425748
289,bratsk,56.1325,101.6142,66.69,69,27,3.87,RU,1690425765
290,carbonear,47.7332,-53.2148,66.74,87,77,10.47,CA,1690425765
291,port isabel,26.0734,-97.2086,85.05,78,0,11.5,US,1690425765
292,la ronge,55.1001,-105.2842,53.85,87,100,14.97,CA,1690425765
293,mezhdurechenskiy,59.6,65.9333,67.48,69,34,6.17,RU,1690425765
294,dalandzadgad,43.5708,104.425,81.84,28,8,8.61,MN,1690425765
295,horta,38.5333,-28.6333,73.02,96,59,5.01,PT,1690425728
296,kourou,5.1552,-52.6478,77.05,86,81,6.31,GF,1690425766
297,katsuura,35.1333,140.3,84.29,70,45,8.9,JP,1690425686
298,zelenogorskiy,55.0333,87.0,72.55,56,46,2.75,RU,1690425766
299,bovalino,38.149,16.174,78.69,62,9,10.49,IT,1690425766
300,kodinsk,58.6881,99.1844,77.09,53,16,4.68,RU,1690425766
301,hadibu,12.65,54.0333,77.18,79,70,26.15,YE,1690425720
302,broken hill,-31.95,141.4333,67.8,31,9,20.27,AU,1690425766
303,smara,26.7384,-11.6719,66.29,81,0,13.94,EH,1690425766
304,bandon,51.7469,-8.7425,60.39,98,100,9.91,IE,1690425766
305,morehead city,34.7229,-76.726,86.0,82,0,5.75,US,1690425767
306,lulea,65.5842,22.1547,59.07,94,75,3.44,SE,1690425767
307,vilyuchinsk,52.9306,158.4028,73.67,81,98,7.36,RU,1690425767
308,la'ie,21.6477,-157.9253,87.76,76,15,16.64,US,1690425767
309,strelka,58.0728,93.0344,72.57,64,69,4.36,RU,1690425767
310,biga,40.2281,27.2422,84.06,37,99,5.91,TR,1690425767
311,san luis de la loma,17.2706,-100.8939,81.54,82,63,6.67,MX,1690425767
312,gerze,41.8036,35.2011,77.76,52,0,9.37,TR,1690425767
313,newman,37.3138,-121.0208,98.94,47,0,5.01,US,1690425768
314,cabedelo,-6.9811,-34.8339,75.87,87,55,10.38,BR,1690425602
315,gorontalo,0.5412,123.0595,86.83,62,77,10.94,ID,1690425768
316,punta cana,18.5818,-68.4043,74.97,94,75,0.0,DO,1690425720
317,taco pozo,-25.6167,-63.2833,56.19,57,100,4.5,AR,1690425768
318,lhokseumawe,5.1801,97.1507,85.26,67,99,4.12,ID,1690425768
319,hamilton,39.1834,-84.5333,84.06,73,0,16.11,US,1690425507
320,sydney mines,46.2367,-60.2177,70.79,87,20,4.61,CA,1690425768
321,yueyang,29.3333,113.0919,89.74,67,45,8.03,CN,1690425768
322,al kharijah,25.4514,30.5464,87.22,20,100,6.11,EG,1690425677
323,inarajan village,13.2736,144.7484,81.57,90,100,7.99,GU,1690425769
324,petropavlovsk-kamchatsky,53.0452,158.6483,72.19,64,20,13.42,RU,1690425769
325,toliara,-23.35,43.6667,62.58,55,0,15.48,MG,1690425721
326,ormara,25.2088,64.6357,83.12,87,100,11.01,PK,1690425769
327,enewetak,11.3474,162.3373,83.34,77,100,12.95,MH,1690425769
328,lerwick,60.1545,-1.1494,50.0,87,0,1.97,GB,1690425769
329,nizhnesortymskiy,62.4397,71.7603,62.51,91,99,6.6,RU,1690425769
330,broome,42.2506,-75.833,77.45,73,0,7.0,US,1690425769
331,coquimbo,-29.9533,-71.3436,55.13,87,0,4.61,CL,1690425770
332,sisimiut,66.9395,-53.6735,39.81,91,49,7.78,GL,1690425770
333,christchurch,-43.5333,172.6333,52.92,61,40,13.8,NZ,1690425608
334,mahibadhoo,3.7833,72.9667,82.85,77,23,6.91,MV,1690425770
335,hirara,24.8,125.2833,88.07,79,75,26.46,JP,1690425770
336,carqueiranne,43.0953,6.073,72.5,40,20,4.61,FR,1690425770
337,shevchenkove,49.6959,37.1735,65.14,75,18,8.19,UA,1690425770
338,mpika,-11.8343,31.4529,47.95,77,4,5.08,ZM,1690425770
339,colonia,50.9333,6.95,62.96,69,0,8.05,DE,1690425770
340,okayama,34.6617,133.935,94.73,66,75,3.44,JP,1690425771
341,makokou,0.5738,12.8642,69.42,96,79,2.8,GA,1690425771
342,vernon,50.2581,-119.2691,77.36,29,2,3.44,CA,1690425484
343,worland,44.0169,-107.9554,84.65,29,0,9.22,US,1690425771
344,bambanglipuro,-7.95,110.2833,79.18,63,89,10.65,ID,1690425771
345,paradip garh,20.3167,86.6167,85.93,77,40,19.91,IN,1690425771
346,kanniyakumari,8.0833,77.5667,81.1,74,79,16.64,IN,1690425771
347,jamestown,42.097,-79.2353,71.19,97,100,8.05,US,1690425501
348,kurduvadi,18.0833,75.4333,72.81,95,100,11.95,IN,1690425771
349,papao,-17.75,-149.55,76.68,79,37,4.18,PF,1690425772
350,formosa do rio preto,-11.0483,-45.1931,66.72,49,34,2.1,BR,1690425772
351,praia da vitoria,38.7333,-27.0667,72.75,88,20,6.73,PT,1690425772
352,port douglas,-16.4833,145.4667,74.25,68,44,15.52,AU,1690425772
353,agat village,13.3886,144.6585,81.54,89,0,9.22,GU,1690425772
354,takab,36.4009,47.1133,67.78,49,0,3.76,IR,1690425772
355,port blair,11.6667,92.75,84.24,84,40,11.5,IN,1690425711
356,hasaki,35.7333,140.8333,101.3,72,14,11.3,JP,1690425559
357,arkadak,51.9326,43.4978,69.93,65,91,6.96,RU,1690425772
358,rawson,-43.3002,-65.1023,40.19,67,76,4.79,AR,1690425772
359,ulladulla,-35.35,150.4667,69.13,30,0,6.26,AU,1690425772
360,guerrero negro,27.9769,-114.0611,70.11,80,2,12.1,MX,1690425772
361,rengo,-34.4167,-70.8667,50.68,66,100,1.7,CL,1690425773
362,dwarka,22.2394,68.9678,82.53,82,100,18.16,IN,1690425773
363,agapovka,53.2973,59.1348,67.21,66,44,6.04,RU,1690425773
364,tabou,4.423,-7.3528,75.85,90,99,8.14,CI,1690425773
365,eraan,9.0629,117.7016,87.1,64,87,13.49,PH,1690425773
366,plettenberg bay,-34.0527,23.3716,52.99,82,10,5.23,ZA,1690425773
367,luquillo,18.3725,-65.7166,84.15,83,40,4.61,PR,1690425773
368,khanty-mansiysk,61.0042,69.0019,62.71,88,0,7.0,RU,1690425773
369,gamba,-2.65,10.0,69.19,96,60,4.88,GA,1690425773
370,mahuta,-10.8667,39.45,61.21,92,100,0.96,TZ,1690425773
371,talghar,43.3044,77.2328,78.85,30,75,6.71,KZ,1690425773
372,geraldton,-28.7667,114.6,59.41,82,100,4.61,AU,1690425696
373,ventspils,57.3894,21.5606,49.93,100,20,0.0,LV,1690425774
374,progreso,21.2833,-89.6667,84.31,84,87,12.75,MX,1690425774
375,mawu,29.5923,107.3139,75.07,93,100,1.1,CN,1690425774
376,noosa heads,-26.3833,153.15,70.11,59,98,11.83,AU,1690425774
377,la passe,45.5549,-0.8967,65.98,94,18,6.67,FR,1690425774
378,namtsy,62.7161,129.6658,74.91,37,77,6.53,RU,1690425774
379,atamyrat,37.8357,65.2106,94.98,13,0,11.86,TM,1690425774
380,misratah,32.3754,15.0925,81.34,69,0,13.49,LY,1690425774
381,east london,-33.0153,27.9116,63.75,70,98,8.48,ZA,1690425767
382,tambo,-14.8,-73.9167,33.51,24,0,2.33,PE,1690425775
383,porto novo,6.4965,2.6036,78.62,94,97,5.06,BJ,1690425775
384,khandyga,62.6667,135.6,72.99,28,0,11.43,RU,1690425775
385,kemijarvi,66.7131,27.4306,54.54,91,98,1.19,FI,1690425775
386,saguenay,48.4168,-71.0657,73.51,73,100,6.91,CA,1690425775
387,zapala,-38.8992,-70.0544,38.05,62,100,3.27,AR,1690425775
388,zhanaozen,43.3,52.8,75.88,55,0,9.75,KZ,1690425775
389,san antonio de pale,-1.4014,5.6325,73.11,90,100,11.36,GQ,1690425738
390,port alfred,-33.5906,26.891,61.03,86,66,16.71,ZA,1690425776
391,badger,64.8,-147.5333,85.51,52,75,1.01,US,1690425694
392,mochudi,-24.4167,26.15,46.99,71,1,5.44,BW,1690425776
393,antofagasta,-23.65,-70.4,63.68,86,63,4.9,CL,1690425591
394,yaren,-0.5472,166.916,83.95,76,46,9.84,NR,1690425776
395,juan griego,11.0817,-63.9655,69.93,100,97,11.5,VE,1690425776
396,plastun,44.7561,136.2939,86.65,47,5,4.68,RU,1690425776
397,labuan bajo,-8.4964,119.8877,83.26,55,13,5.77,ID,1690425776
398,alaghsas,17.0187,8.0168,87.96,39,85,10.63,NE,1690425777
399,debica,50.0515,21.4114,53.94,92,99,6.8,PL,1690425777
400,chapaev,50.2,51.1667,79.83,43,12,7.58,KZ,1690425777
401,paoua,7.2427,16.4406,67.39,92,100,3.15,CF,1690425777
402,mukalla,14.5425,49.1242,84.24,66,55,2.35,YE,1690425777
403,monrovia,6.3005,-10.7969,76.77,89,76,4.52,LR,1690425777
404,altai,46.3722,96.2583,71.31,21,67,1.5,MN,1690425777
405,susuman,62.7833,148.1667,48.92,82,100,6.13,RU,1690425777
406,tazacorte,28.629,-17.9293,72.57,78,40,12.66,ES,1690425778
407,lubuklinggau,-3.3,102.8667,84.99,61,48,2.64,ID,1690425778
408,norilsk,69.3535,88.2027,79.43,47,72,5.14,RU,1690425778
409,wildwood,38.5828,-90.6629,88.75,71,0,6.91,US,1690425778
410,bikenibeu village,1.3673,173.1241,87.76,70,40,6.91,KI,1690425778
411,itoman,26.1247,127.6694,86.02,82,75,16.11,JP,1690425778
412,aripuana,-9.1667,-60.6333,73.92,55,14,0.69,BR,1690425521
413,padang,-0.9492,100.3543,82.45,65,91,2.42,ID,1690425778
414,honggang,46.4667,124.8667,84.94,67,98,19.24,CN,1690425778
415,holma,9.9008,13.0567,73.11,72,94,1.66,NG,1690425778
416,islamkot,24.6997,70.177,84.88,74,96,14.65,PK,1690425778
417,teluk nibung,3.001,99.8164,83.84,76,98,2.01,ID,1690425779
418,kolonia,50.9333,6.95,62.96,69,0,8.05,DE,1690425770
419,kavaratti,10.5669,72.642,82.63,73,100,13.49,IN,1690425779
420,grafton,42.207,-71.6856,75.51,83,0,9.22,US,1690425779
421,selkirk,50.1436,-96.8845,84.27,86,60,7.99,CA,1690425709
422,lycksele,64.5954,18.6735,53.47,94,75,0.0,SE,1690425779
423,khilok,51.3674,110.4676,57.29,98,100,5.68,RU,1690425779
424,tenno,39.9,139.9667,87.01,79,12,11.56,JP,1690425779
425,dauphin,51.1494,-100.0502,77.14,50,0,12.66,CA,1690425587
426,afif,23.9065,42.9172,81.27,19,26,9.73,SA,1690425779
427,flying fish cove,-10.4217,105.6791,76.68,88,75,12.66,CX,1690425780
428,egilsstadir,65.2653,-14.3948,42.71,93,75,12.66,IS,1690425701
429,pathein,16.7833,94.7333,86.34,71,39,12.19,MM,1690425780
430,karaton,-6.3424,106.1045,83.23,68,70,3.69,ID,1690425780
431,aasiaat,68.7098,-52.8699,35.91,96,31,6.29,GL,1690425780
432,mo i rana,66.3128,14.1428,58.32,90,100,0.0,NO,1690425780
433,rio grande,-32.035,-52.0986,53.94,88,1,13.73,BR,1690425699
434,luwuk,-0.9516,122.7875,82.98,72,65,7.7,ID,1690425780
435,envira,-7.3,-70.2167,74.14,59,25,2.26,BR,1690425780
436,grinnell,41.743,-92.7224,82.38,87,0,3.44,US,1690425742
437,ulsteinvik,62.3432,5.8487,60.91,93,98,1.99,NO,1690425781
438,mata-utu,-13.2816,-176.1745,80.17,76,99,16.15,WF,1690425781
439,aginskoye,51.1,114.53,62.1,84,100,10.31,RU,1690425781
440,pisco,-13.7,-76.2167,64.45,82,0,12.66,PE,1690425726
441,owando,-0.4819,15.8999,77.32,72,100,3.13,CG,1690425781
442,qamdo,31.1667,97.2333,49.08,58,99,4.92,CN,1690425750
443,kununurra,-15.7667,128.7333,80.58,29,7,5.75,AU,1690425698
444,dhanot,29.5799,71.7521,85.89,74,93,4.27,PK,1690425781
445,fortaleza,-3.7227,-38.5247,81.21,78,0,11.5,BR,1690425740
446,qui nhon,13.7667,109.2333,89.42,60,68,12.84,VN,1690425781
447,sihanoukville,10.6093,103.5296,85.95,79,40,14.97,KH,1690425690
448,dudinka,69.4058,86.1778,79.63,57,66,5.14,RU,1690425688
449,oriximina,-1.7656,-55.8661,81.23,61,45,2.82,BR,1690425782
450,eastham,41.8301,-69.9739,75.97,79,46,5.01,US,1690425782
451,ozimek,50.6794,18.2137,51.37,81,50,5.01,PL,1690425782
452,ebon,4.582,168.6964,82.54,72,62,3.13,MH,1690425782
453,sal rei,16.1833,-22.9167,77.05,84,77,11.32,CV,1690425782
454,castillos,-34.1667,-53.8333,48.63,82,0,13.35,UY,1690425782
455,tual,-5.6667,132.75,78.69,82,47,21.12,ID,1690425783
456,tromso,69.6496,18.957,53.38,87,75,9.22,NO,1690425783
457,greymouth,-42.4667,171.2,49.73,62,69,2.13,NZ,1690425783
458,kendari,-3.945,122.4989,85.03,61,25,2.98,ID,1690425783
459,monzon,41.9108,0.1941,69.22,64,0,4.43,ES,1690425783
460,taksimo,56.3444,114.8794,80.01,50,67,2.8,RU,1690425783
461,sarangani,5.4033,125.4636,82.87,77,100,11.52,PH,1690425783
462,essaouira,31.5125,-9.77,69.3,87,0,6.91,MA,1690425783
463,kipushi,-11.7667,27.2333,52.5,65,4,4.81,CD,1690425783
464,cozumel,20.5083,-86.9458,86.07,87,40,5.99,MX,1690425784
465,saint-philippe,-21.3585,55.7679,65.79,82,59,11.27,RE,1690425784
466,bulanik,39.0929,42.2703,67.62,58,0,2.37,TR,1690425784
467,alice springs,-23.7,133.8833,76.55,41,75,14.97,AU,1690425784
468,roma,43.2128,-75.4557,77.83,71,0,6.91,US,1690425784
469,carutapera,-1.195,-46.02,76.55,88,47,5.88,BR,1690425784
470,cockburn town,21.4612,-71.1419,83.14,83,69,22.1,TC,1690425784
471,mahina,-17.5065,-149.489,76.77,88,75,2.3,PF,1690425784
472,harper,4.375,-7.7169,75.92,89,99,8.61,LR,1690425784
473,bairnsdale,-37.8333,147.6167,64.6,28,0,3.22,AU,1690425785
474,arkalyk,50.2486,66.9114,68.7,65,52,9.15,KZ,1690425785
475,cove,7.221,2.3402,72.81,98,63,4.34,BJ,1690425785
476,susanville,40.4163,-120.653,85.84,16,0,9.22,US,1690425664
477,el calafate,-50.3408,-72.2768,25.48,71,100,1.59,AR,1690425785
478,magadan,59.5667,150.8,61.54,98,100,6.31,RU,1690425785
479,san julian,21.0167,-102.1667,59.54,84,99,5.23,MX,1690425785
480,fort frances,48.5999,-93.4003,79.02,69,0,0.0,CA,1690425785
481,sosnovoborsk,56.1325,93.3589,73.6,57,15,4.36,RU,1690425785
482,luau,-10.7073,22.2247,58.44,40,82,2.06,AO,1690425786
483,viborg,56.4532,9.402,54.66,83,98,10.31,DK,1690425786
484,florence,43.7667,11.25,67.3,92,0,1.14,IT,1690425767
485,baganga,7.5739,126.56,85.84,69,99,5.46,PH,1690425786
486,neuburg an der donau,48.7333,11.1833,51.82,93,40,3.44,DE,1690425786
487,bardai,11.65,7.2333,72.88,84,98,9.17,NG,1690425786
488,armacao de buzios,-22.7469,-41.8817,69.85,90,41,17.31,BR,1690425786
489,guajara,-2.9667,-57.6667,76.78,59,1,2.15,BR,1690425786
490,mawlamyinegyunn,16.3833,95.2667,86.45,72,60,12.57,MM,1690425786
491,weno,7.4515,151.8468,83.19,74,24,7.38,FM,1690425787
492,howard springs,-12.497,131.047,84.11,27,100,3.94,AU,1690425787
493,ixtapa,20.7,-105.2,83.23,83,75,9.22,MX,1690425788
494,puerto lempira,15.2667,-83.7667,79.66,81,87,6.69,HN,1690425788
495,fukuecho,32.6881,128.8419,86.36,79,40,9.22,JP,1690425788
496,puerto colombia,10.9878,-74.9547,82.49,88,97,7.96,CO,1690425788
497,masterton,-40.9597,175.6575,53.89,84,95,9.42,NZ,1690425707
498,ust'-kut,56.7938,105.7672,74.97,58,97,5.82,RU,1690425788
499,khorixas,-20.3667,14.9667,57.42,40,21,2.21,NA,1690425788
500,berdigestyakh,62.0989,126.6992,74.39,44,100,3.49,RU,1690425788
501,antsiranana,-12.2787,49.2917,71.19,75,0,17.58,MG,1690425788
502,al mijlad,11.0333,27.7333,73.98,82,100,11.16,SD,1690425789
503,mwinilunga,-11.7358,24.4293,53.83,51,67,4.99,ZM,1690425789
504,yelets,52.6237,38.5017,67.73,80,25,6.51,RU,1690425789
505,sao joao da barra,-21.6403,-41.0511,71.31,86,99,15.59,BR,1690425725
506,forst,51.7333,14.6333,54.86,89,48,7.63,DE,1690425789
507,shalqar,47.8333,59.6,82.13,35,4,8.52,KZ,1690425789
508,neem ka thana,27.7333,75.8,84.65,70,87,6.08,IN,1690425789
509,bodaybo,57.8506,114.1933,82.13,53,5,2.37,RU,1690425789
510,bata,1.8639,9.7658,75.9,90,98,7.85,GQ,1690425790
511,cheremushki,52.8356,91.3944,75.6,47,90,2.3,RU,1690425790
512,meadow lake,34.8014,-106.5436,92.68,42,69,18.41,US,1690425790
513,argo,37.6333,22.7333,84.78,58,0,5.03,GR,1690425664
514,ghat,24.9647,10.1728,85.55,12,1,1.41,LY,1690425790
515,maues,-3.3836,-57.7186,76.98,59,13,1.54,BR,1690425790
516,yen vinh,18.6667,105.6667,93.6,51,100,4.09,VN,1690425790
517,burgersdorp,-30.9977,26.3286,46.35,94,8,5.88,ZA,1690425790
518,aljezur,37.3191,-8.8033,63.39,93,79,12.21,PT,1690425791
519,phu ly,20.5411,105.9139,93.79,52,89,1.23,VN,1690425791
520,sandwip,22.4678,91.4561,84.24,85,97,20.02,BD,1690425791
521,posto fiscal rolim de moura,-13.0833,-62.2667,74.52,48,17,0.4,BR,1690425791
522,tamanrasset,22.785,5.5228,84.11,10,0,12.66,DZ,1690425791
523,kayangel,8.0823,134.7173,79.93,84,100,24.99,PW,1690425791
524,villa canas,-34.0057,-61.6076,46.92,10,100,4.54,AR,1690425791
525,aksaray,38.3726,34.0254,68.88,24,0,3.02,TR,1690425791
526,goondiwindi,-28.55,150.3167,68.29,38,0,5.7,AU,1690425791
527,al hayy,32.1735,46.0433,96.62,12,1,9.89,IQ,1690425792
528,talcahuano,-36.7167,-73.1167,46.08,100,47,0.0,CL,1690425792
529,cururupu,-1.8283,-44.8683,75.06,89,28,4.25,BR,1690425792
530,mompos,9.2419,-74.4267,76.21,90,100,1.43,CO,1690425792
531,molde,62.7375,7.1591,60.71,94,100,2.3,NO,1690425792
532,choyr,46.3611,108.3611,73.42,37,2,7.76,MN,1690425792
533,kushiro,42.975,144.3747,85.15,70,40,6.91,JP,1690425792
534,raduzhny,62.0961,77.475,67.75,74,41,7.11,RU,1690425792
535,barguzin,53.6167,109.6167,61.25,94,100,6.22,RU,1690425792
536,vila velha,-20.3297,-40.2925,69.94,89,40,2.3,BR,1690425793
537,bela,25.9333,81.9833,93.52,51,83,12.03,IN,1690425793
538,hassi messaoud,31.6804,6.0729,91.26,38,0,4.61,DZ,1690425793
539,tobruk,32.0836,23.9764,80.98,81,0,11.27,LY,1690425793
540,ta`u,-14.2336,-169.5144,78.19,73,91,11.86,AS,1690425793
541,korsakov,46.6328,142.7813,82.24,65,92,13.49,RU,1690425793
542,faranah,10.0404,-10.7434,70.38,99,100,5.41,GN,1690425793
543,amahai,-3.3333,128.9167,84.0,79,44,10.11,ID,1690425793
544,ingeniero guillermo n. juarez,-23.9,-61.85,62.44,65,100,3.62,AR,1690425794
545,askoy,60.4092,5.226,59.02,49,75,2.3,NO,1690425794
